{
  "pois": [
    {
      "id": 1,
      "name": "肯德基学则路店",
      "type": "餐饮",
      "lon": 118.797500,
      "lat": 32.061200,
      "address": "栖霞区学则路2号",
      "phone": "025-85891234",
      "description": "快餐连锁店，提供炸鸡汉堡等美式快餐"
    },
    {
      "id": 2,
      "name": "南京师范大学",
      "type": "教育",
      "lon": 118.796200,
      "lat": 32.060100,
      "address": "栖霞区文苑路1号",
      "phone": "025-85891234",
      "description": "江苏省重点综合性大学，师范教育特色鲜明"
    },
    {
      "id": 3,
      "name": "苏果超市学则路店",
      "type": "购物",
      "lon": 118.798500,
      "lat": 32.062300,
      "address": "栖霞区学则路18号",
      "phone": "025-85892345",
      "description": "大型连锁超市，日用品齐全"
    },
    {
      "id": 4,
      "name": "星巴克仙林大学城店",
      "type": "餐饮",
      "lon": 118.795800,
      "lat": 32.061500,
      "address": "栖霞区学则路5号",
      "phone": "025-85893456",
      "description": "国际知名咖啡连锁品牌"
    },
    {
      "id": 5,
      "name": "南师大附中仙林分校",
      "type": "教育",
      "lon": 118.799200,
      "lat": 32.059800,
      "address": "栖霞区学衡路28号",
      "phone": "025-85894567",
      "description": "江苏省重点中学分校"
    },
    {
      "id": 6,
      "name": "一兆韦德健身",
      "type": "体育",
      "lon": 118.796800,
      "lat": 32.062100,
      "address": "栖霞区学则路12号3楼",
      "phone": "025-85895678",
      "description": "专业健身连锁机构"
    },
    {
      "id": 7,
      "name": "仙林社区卫生服务中心",
      "type": "医疗",
      "lon": 118.800100,
      "lat": 32.061400,
      "address": "栖霞区仙林大道168号",
      "phone": "025-85896789",
      "description": "提供基础医疗和预防保健服务"
    },
    {
      "id": 8,
      "name": "麦当劳仙林店",
      "type": "餐饮",
      "lon": 118.797800,
      "lat": 32.059500,
      "address": "栖霞区学则路8号",
      "phone": "025-85897890",
      "description": "全球连锁快餐品牌"
    },
    {
      "id": 9,
      "name": "华润苏果便利店",
      "type": "购物",
      "lon": 118.794500,
      "lat": 32.060800,
      "address": "栖霞区学则路22号",
      "phone": "025-85898901",
      "description": "24小时便利店"
    },
    {
      "id": 10,
      "name": "必胜客欢乐餐厅",
      "type": "餐饮",
      "lon": 118.798200,
      "lat": 32.063100,
      "address": "栖霞区学则路15号",
      "phone": "025-85899012",
      "description": "意式休闲餐厅，主营披萨和意面"
    },
    {
      "id": 11,
      "name": "海底捞火锅",
      "type": "餐饮",
      "lon": 118.799500,
      "lat": 32.061800,
      "address": "栖霞区文苑路金鹰天地3楼",
      "phone": "025-85890123",
      "description": "知名火锅连锁品牌，服务优质"
    },
    {
      "id": 12,
      "name": "新东方教育培训中心",
      "type": "教育",
      "lon": 118.795200,
      "lat": 32.062500,
      "address": "栖霞区学则路26号2楼",
      "phone": "025-85891230",
      "description": "知名教育培训机构"
    },
    {
      "id": 13,
      "name": "屈臣氏个人护理店",
      "type": "购物",
      "lon": 118.797200,
      "lat": 32.060600,
      "address": "栖霞区学则路10号",
      "phone": "025-85892340",
      "description": "个人护理用品连锁店"
    },
    {
      "id": 14,
      "name": "如家快捷酒店",
      "type": "其它",
      "lon": 118.800500,
      "lat": 32.060200,
      "address": "栖霞区学则路30号",
      "phone": "025-85893450",
      "description": "经济型连锁酒店"
    },
    {
      "id": 15,
      "name": "德基广场",
      "type": "购物",
      "lon": 118.778900,
      "lat": 32.045600,
      "address": "玄武区中山路18号",
      "phone": "025-84540000",
      "description": "南京高端购物中心，国际品牌云集"
    },
    {
      "id": 16,
      "name": "大洋百货",
      "type": "购物",
      "lon": 118.779300,
      "lat": 32.046200,
      "address": "玄武区中山南路1号",
      "phone": "025-84541111",
      "description": "老牌综合性百货商场"
    },
    {
      "id": 17,
      "name": "汉堡王新街口店",
      "type": "餐饮",
      "lon": 118.777800,
      "lat": 32.044800,
      "address": "玄武区中山路8号",
      "phone": "025-84542222",
      "description": "美式快餐连锁"
    },
    {
      "id": 18,
      "name": "新街口地铁站",
      "type": "交通",
      "lon": 118.778661,
      "lat": 32.045348,
      "address": "玄武区中山南路",
      "phone": "025-12345678",
      "description": "南京地铁1、2号线换乘站"
    },
    {
      "id": 19,
      "name": "南京图书馆",
      "type": "教育",
      "lon": 118.783200,
      "lat": 32.044500,
      "address": "玄武区中山东路189号",
      "phone": "025-84356000",
      "description": "江苏省最大的综合性公共图书馆"
    },
    {
      "id": 20,
      "name": "中央商场",
      "type": "购物",
      "lon": 118.779800,
      "lat": 32.045100,
      "address": "玄武区中山南路79号",
      "phone": "025-84543333",
      "description": "南京老字号商场"
    },
    {
      "id": 21,
      "name": "瑞金医院",
      "type": "医疗",
      "lon": 118.781500,
      "lat": 32.043800,
      "address": "玄武区中山东路168号",
      "phone": "025-84544444",
      "description": "三甲综合医院"
    },
    {
      "id": 22,
      "name": "金鹰国际购物中心",
      "type": "购物",
      "lon": 118.777200,
      "lat": 32.046500,
      "address": "鼓楼区汉中路89号",
      "phone": "025-84545555",
      "description": "高端购物休闲综合体"
    },
    {
      "id": 23,
      "name": "南京火车站",
      "type": "交通",
      "lon": 118.802500,
      "lat": 32.087200,
      "address": "玄武区龙蟠路111号",
      "phone": "025-12306",
      "description": "南京主要铁路客运站之一"
    },
    {
      "id": 24,
      "name": "玄武湖公园",
      "type": "其它",
      "lon": 118.795800,
      "lat": 32.082500,
      "address": "玄武区玄武巷1号",
      "phone": "025-83614286",
      "description": "南京最大的城市公园"
    },
    {
      "id": 25,
      "name": "肯德基南京站店",
      "type": "餐饮",
      "lon": 118.802800,
      "lat": 32.087800,
      "address": "玄武区龙蟠路火车站广场",
      "phone": "025-85670001",
      "description": "快餐连锁"
    },
    {
      "id": 26,
      "name": "7天连锁酒店",
      "type": "其它",
      "lon": 118.803500,
      "lat": 32.086500,
      "address": "玄武区龙蟠路98号",
      "phone": "025-85670002",
      "description": "经济型连锁酒店"
    },
    {
      "id": 27,
      "name": "家乐福玄武店",
      "type": "购物",
      "lon": 118.805200,
      "lat": 32.088500,
      "address": "玄武区中央路201号",
      "phone": "025-85670003",
      "description": "大型综合超市"
    },
    {
      "id": 28,
      "name": "南京大学仙林校区",
      "type": "教育",
      "lon": 118.953200,
      "lat": 32.114500,
      "address": "栖霞区仙林大道163号",
      "phone": "025-89680000",
      "description": "985工程重点大学仙林校区"
    },
    {
      "id": 29,
      "name": "金鹰天地购物中心",
      "type": "购物",
      "lon": 118.796500,
      "lat": 32.061900,
      "address": "栖霞区文苑路1号",
      "phone": "025-85899900",
      "description": "仙林地区大型购物中心"
    },
    {
      "id": 30,
      "name": "仙林大学城体育中心",
      "type": "体育",
      "lon": 118.794800,
      "lat": 32.059600,
      "address": "栖霞区学海路1号",
      "phone": "025-85891111",
      "description": "综合性体育运动场馆"
    },
    {
      "id": 31,
      "name": "中医药大学附属医院",
      "type": "医疗",
      "lon": 118.803200,
      "lat": 32.114800,
      "address": "栖霞区仙林大道138号",
      "phone": "025-85608788",
      "description": "中西医结合综合医院"
    },
    {
      "id": 32,
      "name": "大成名店",
      "type": "购物",
      "lon": 118.799800,
      "lat": 32.061100,
      "address": "栖霞区学则路8号",
      "phone": "025-85896666",
      "description": "品牌折扣购物中心"
    },
    {
      "id": 33,
      "name": "必胜客仙林店",
      "type": "餐饮",
      "lon": 118.795500,
      "lat": 32.060900,
      "address": "栖霞区学则路金鹰1楼",
      "phone": "025-85895555",
      "description": "意式休闲餐厅"
    },
    {
      "id": 34,
      "name": "吉野家学则路店",
      "type": "餐饮",
      "lon": 118.796100,
      "lat": 32.061800,
      "address": "栖霞区学则路6号",
      "phone": "025-85894444",
      "description": "日式快餐连锁"
    },
    {
      "id": 35,
      "name": "南京邮电大学仙林校区",
      "type": "教育",
      "lon": 118.913200,
      "lat": 32.106500,
      "address": "栖霞区文苑路9号",
      "phone": "025-83535555",
      "description": "信息通信特色高校"
    },
    {
      "id": 36,
      "name": "奥体中心",
      "type": "体育",
      "lon": 118.732800,
      "lat": 32.007200,
      "address": "建邺区江东中路222号",
      "phone": "025-86690000",
      "description": "南京奥林匹克体育中心"
    },
    {
      "id": 37,
      "name": "南京南站",
      "type": "交通",
      "lon": 118.794600,
      "lat": 31.977800,
      "address": "雨花台区玉兰路98号",
      "phone": "025-12306",
      "description": "南京高铁主站"
    },
    {
      "id": 38,
      "name": "河海大学江宁校区",
      "type": "教育",
      "lon": 118.756200,
      "lat": 31.939500,
      "address": "江宁区佛城西路8号",
      "phone": "025-83786000",
      "description": "211工程重点大学"
    },
    {
      "id": 39,
      "name": "金陵饭店",
      "type": "餐饮",
      "lon": 118.779200,
      "lat": 32.045900,
      "address": "鼓楼区汉中路2号",
      "phone": "025-84711888",
      "description": "南京知名五星级酒店"
    },
    {
      "id": 40,
      "name": "夫子庙",
      "type": "其它",
      "lon": 118.788200,
      "lat": 32.023800,
      "address": "秦淮区贡院街152号",
      "phone": "025-52209788",
      "description": "南京著名历史文化景区"
    }
  ]
}